{"data":{"ready":true,"paused":false,"onGround":false,"crashed":false,"sts":"2017-09-21T16:50:36Z","ts":"2017-11-11T14:33:42.5526064+11:00","pitch":"6.3934676997","roll":"-0.0140349193","yaw":"-0.1353975023","airspeed":"175.4296875000","altitude":"2046.6469735150","heading":{"true":29.954753126820336,"mag":43.682170119007836},"vspeed":"1219.5497437500","ilsDeviation":{"loc":"0.0464206277","gs":"-2.5000000000"},"onTrack":false,"status":0,"lng":-73.88139194943797,"lat":40.483215355355846,"weather":{"wind":{"heading":"346.4579467773","speed":6},"temp":"11.1914062500","turbulance":"N/A"}},"collectorId":"fb0d0289-a40e-4688-b2fb-5f894ba9e7c9","runId":"0"}
{"data":{"ready":true,"paused":false,"onGround":false,"crashed":false,"sts":"2017-09-21T16:50:36Z","ts":"2017-11-11T14:33:42.5526064+11:00","pitch":"6.3934676997","roll":"-0.0140349193","yaw":"-0.1353975023","airspeed":"175.4296875000","altitude":"2046.6469735150","heading":{"true":29.954753126820336,"mag":43.682170119007836},"vspeed":"1219.5497437500","ilsDeviation":{"loc":"0.0464206277","gs":"-2.5000000000"},"onTrack":false,"status":0,"lng":-73.88139194943797,"lat":40.483215355355846,"weather":{"wind":{"heading":"346.4579467773","speed":6},"temp":"11.1914062500","turbulance":"N/A"}},"collectorId":"fb0d0289-a40e-4688-b2fb-5f894ba9e7c9","runId":"0"}
{"data":{"ready":true,"paused":false,"onGround":false,"crashed":false,"sts":"2017-09-21T16:50:36Z","ts":"2017-11-11T14:33:42.5526064+11:00","pitch":"6.3934676997","roll":"-0.0140349193","yaw":"-0.1353975023","airspeed":"175.4296875000","altitude":"2046.6469735150","heading":{"true":29.954753126820336,"mag":43.682170119007836},"vspeed":"1219.5497437500","ilsDeviation":{"loc":"0.0464206277","gs":"-2.5000000000"},"onTrack":false,"status":0,"lng":-73.88139194943797,"lat":40.483215355355846,"weather":{"wind":{"heading":"346.4579467773","speed":6},"temp":"11.1914062500","turbulance":"N/A"}},"collectorId":"fb0d0289-a40e-4688-b2fb-5f894ba9e7c9","runId":"0"}
{"data":{"ready":true,"paused":false,"onGround":false,"crashed":false,"sts":"2017-09-21T16:50:36Z","ts":"2017-11-11T14:33:42.8666064+11:00","pitch":"6.8941755468","roll":"-0.0148820203","yaw":"-0.1530935182","airspeed":"173.7187500000","altitude":"2057.2345861563","heading":{"true":29.91733223541021,"mag":43.644749227597714},"vspeed":"1436.3927625000","ilsDeviation":{"loc":"0.0475396040","gs":"-2.5000000000"},"onTrack":false,"status":0,"lng":-73.88122220988228,"lat":40.48343933125045,"weather":{"wind":{"heading":"346.3256530762","speed":6},"temp":"11.1718750000","turbulance":"N/A"}},"collectorId":"fb0d0289-a40e-4688-b2fb-5f894ba9e7c9","runId":"0"}
{"data":{"ready":true,"paused":false,"onGround":false,"crashed":false,"sts":"2017-09-21T16:50:36Z","ts":"2017-11-11T14:33:42.8666064+11:00","pitch":"6.8941755468","roll":"-0.0148820203","yaw":"-0.1530935182","airspeed":"173.7187500000","altitude":"2057.2345861563","heading":{"true":29.91733223541021,"mag":43.644749227597714},"vspeed":"1436.3927625000","ilsDeviation":{"loc":"0.0475396040","gs":"-2.5000000000"},"onTrack":false,"status":0,"lng":-73.88122220988228,"lat":40.48343933125045,"weather":{"wind":{"heading":"346.3256530762","speed":6},"temp":"11.1718750000","turbulance":"N/A"}},"collectorId":"fb0d0289-a40e-4688-b2fb-5f894ba9e7c9","runId":"0"}
{"data":{"ready":true,"paused":false,"onGround":false,"crashed":false,"sts":"2017-09-21T16:50:37Z","ts":"2017-11-11T14:33:42.9816064+11:00","pitch":"7.0709799231","roll":"-0.0093060405","yaw":"-0.1576983822","airspeed":"173.0781250000","altitude":"2061.1766303075","heading":{"true":29.90142499321962,"mag":43.62884198540712},"vspeed":"1504.8290343750","ilsDeviation":{"loc":"0.0475396040","gs":"-2.5000000000"},"onTrack":false,"status":0,"lng":-73.88116120577982,"lat":40.48351982458406,"weather":{"wind":{"heading":"346.2373962402","speed":6},"temp":"11.1640625000","turbulance":"N/A"}},"collectorId":"fb0d0289-a40e-4688-b2fb-5f894ba9e7c9","runId":"0"}
{"data":{"ready":true,"paused":false,"onGround":false,"crashed":false,"sts":"2017-09-21T16:50:37Z","ts":"2017-11-11T14:33:43.0846064+11:00","pitch":"7.2309628151","roll":"-0.0022458319","yaw":"-0.1609633568","airspeed":"172.5078125000","altitude":"2064.8453549216","heading":{"true":29.885875920681936,"mag":43.61329291286944},"vspeed":"1564.8068906250","ilsDeviation":{"loc":"0.0475396040","gs":"-2.5000000000"},"onTrack":false,"status":0,"lng":-73.88110541203646,"lat":40.483593441045855,"weather":{"wind":{"heading":"346.1932983398","speed":6},"temp":"11.1562500000","turbulance":"N/A"}},"collectorId":"fb0d0289-a40e-4688-b2fb-5f894ba9e7c9","runId":"0"}
{"data":{"ready":true,"paused":false,"onGround":false,"crashed":false,"sts":"2017-09-21T16:50:37Z","ts":"2017-11-11T14:33:43.2936064+11:00","pitch":"7.5579765699","roll":"-0.0051926637","yaw":"-0.1653428695","airspeed":"171.3046875000","altitude":"2072.6389221293","heading":{"true":29.85095165532185,"mag":43.57836864750935},"vspeed":"1677.8420812500","ilsDeviation":{"loc":"0.0485907671","gs":"-2.5000000000"},"onTrack":false,"status":0,"lng":-73.88098981346177,"lat":40.48374595987826,"weather":{"wind":{"heading":"346.1051635742","speed":6},"temp":"11.1406250000","turbulance":"N/A"}},"collectorId":"fb0d0289-a40e-4688-b2fb-5f894ba9e7c9","runId":"0"}
{"data":{"ready":true,"paused":false,"onGround":false,"crashed":false,"sts":"2017-09-21T16:50:37Z","ts":"2017-11-11T14:33:43.2936064+11:00","pitch":"7.5579765699","roll":"-0.0051926637","yaw":"-0.1653428695","airspeed":"171.3046875000","altitude":"2072.6389221293","heading":{"true":29.85095165532185,"mag":43.57836864750935},"vspeed":"1677.8420812500","ilsDeviation":{"loc":"0.0485907671","gs":"-2.5000000000"},"onTrack":false,"status":0,"lng":-73.88098981346177,"lat":40.48374595987826,"weather":{"wind":{"heading":"346.1051635742","speed":6},"temp":"11.1406250000","turbulance":"N/A"}},"collectorId":"fb0d0289-a40e-4688-b2fb-5f894ba9e7c9","runId":"0"}
{"data":{"ready":true,"paused":false,"onGround":false,"crashed":false,"sts":"2017-09-21T16:50:37Z","ts":"2017-11-11T14:33:43.2936064+11:00","pitch":"7.5579765699","roll":"-0.0051926637","yaw":"-0.1653428695","airspeed":"171.3046875000","altitude":"2072.6389221293","heading":{"true":29.85095165532185,"mag":43.57836864750935},"vspeed":"1677.8420812500","ilsDeviation":{"loc":"0.0485907671","gs":"-2.5000000000"},"onTrack":false,"status":0,"lng":-73.88098981346177,"lat":40.48374595987826,"weather":{"wind":{"heading":"346.1051635742","speed":6},"temp":"11.1406250000","turbulance":"N/A"}},"collectorId":"fb0d0289-a40e-4688-b2fb-5f894ba9e7c9","runId":"0"}
{"data":{"ready":true,"paused":false,"onGround":false,"crashed":false,"sts":"2017-09-21T16:50:37Z","ts":"2017-11-11T14:33:43.5256064+11:00","pitch":"7.8809929568","roll":"-0.0190122453","yaw":"-0.1677946168","airspeed":"170.0625000000","altitude":"2080.7157490413","heading":{"true":29.81286111323139,"mag":43.54027810541889},"vspeed":"1780.8809625000","ilsDeviation":{"loc":"0.0496758345","gs":"-2.5000000000"},"onTrack":false,"status":0,"lng":-73.88087384699983,"lat":40.483898953756565,"weather":{"wind":{"heading":"345.9728088379","speed":6},"temp":"11.1250000000","turbulance":"N/A"}},"collectorId":"fb0d0289-a40e-4688-b2fb-5f894ba9e7c9","runId":"0"}
{"data":{"ready":true,"paused":false,"onGround":false,"crashed":false,"sts":"2017-09-21T16:50:37Z","ts":"2017-11-11T14:33:43.7426064+11:00","pitch":"8.1891010873","roll":"-0.0190984978","yaw":"-0.1692461209","airspeed":"168.8593750000","altitude":"2088.7647854687","heading":{"true":29.773783571921882,"mag":43.50120056410938},"vspeed":"1871.6166937500","ilsDeviation":{"loc":"0.0496758345","gs":"-2.5000000000"},"onTrack":false,"status":0,"lng":-73.88076176582986,"lat":40.48404681017716,"weather":{"wind":{"heading":"345.8846130371","speed":6},"temp":"11.1093750000","turbulance":"N/A"}},"collectorId":"fb0d0289-a40e-4688-b2fb-5f894ba9e7c9","runId":"0"}
{"data":{"ready":true,"paused":false,"onGround":false,"crashed":false,"sts":"2017-09-21T16:50:37Z","ts":"2017-11-11T14:33:43.8486064+11:00","pitch":"8.3533217474","roll":"-0.0158976865","yaw":"-0.1694002984","airspeed":"168.2031250000","altitude":"2093.1923844915","heading":{"true":29.752030947350036,"mag":43.479447939537536},"vspeed":"1916.2156125000","ilsDeviation":{"loc":"0.0506930886","gs":"-2.5000000000"},"onTrack":false,"status":0,"lng":-73.88070147427014,"lat":40.48412634123703,"weather":{"wind":{"heading":"345.8404541016","speed":6},"temp":"11.1015625000","turbulance":"N/A"}},"collectorId":"fb0d0289-a40e-4688-b2fb-5f894ba9e7c9","runId":"0"}
{"data":{"ready":true,"paused":false,"onGround":false,"crashed":false,"sts":"2017-09-21T16:50:37Z","ts":"2017-11-11T14:33:43.8486064+11:00","pitch":"8.3533217474","roll":"-0.0158976865","yaw":"-0.1694002984","airspeed":"168.2031250000","altitude":"2093.1923844915","heading":{"true":29.752030947350036,"mag":43.479447939537536},"vspeed":"1916.2156125000","ilsDeviation":{"loc":"0.0506930886","gs":"-2.5000000000"},"onTrack":false,"status":0,"lng":-73.88070147427014,"lat":40.48412634123703,"weather":{"wind":{"heading":"345.8404541016","speed":6},"temp":"11.1015625000","turbulance":"N/A"}},"collectorId":"fb0d0289-a40e-4688-b2fb-5f894ba9e7c9","runId":"0"}
{"data":{"ready":true,"paused":false,"onGround":false,"crashed":false,"sts":"2017-09-21T16:50:37Z","ts":"2017-11-11T14:33:43.9536064+11:00","pitch":"8.5008003023","roll":"-0.0231379440","yaw":"-0.1696195323","airspeed":"167.6015625000","altitude":"2097.2502320410","heading":{"true":29.732024494135395,"mag":43.459441486322895},"vspeed":"1955.4319031250","ilsDeviation":{"loc":"0.0506930886","gs":"-2.5000000000"},"onTrack":false,"status":0,"lng":-73.88064700779285,"lat":40.484198185057345,"weather":{"wind":{"heading":"345.7522583008","speed":6},"temp":"11.0937500000","turbulance":"N/A"}},"collectorId":"fb0d0289-a40e-4688-b2fb-5f894ba9e7c9","runId":"0"}
{"data":{"ready":true,"paused":false,"onGround":false,"crashed":false,"sts":"2017-09-21T16:50:38Z","ts":"2017-11-11T14:33:44.0596064+11:00","pitch":"8.6482890835","roll":"-0.0258489018","yaw":"-0.1705142923","airspeed":"167.0000000000","altitude":"2101.3859867277","heading":{"true":29.711615110538936,"mag":43.439032102726436},"vspeed":"1993.1103000000","ilsDeviation":{"loc":"0.0506930886","gs":"-2.5000000000"},"onTrack":false,"status":0,"lng":-73.88059223283389,"lat":40.48427043234054,"weather":{"wind":{"heading":"345.7081604004","speed":6},"temp":"11.0820312500","turbulance":"N/A"}},"collectorId":"fb0d0289-a40e-4688-b2fb-5f894ba9e7c9","runId":"0"}
{"data":{"ready":true,"paused":false,"onGround":false,"crashed":false,"sts":"2017-09-21T16:50:38Z","ts":"2017-11-11T14:33:44.1746064+11:00","pitch":"8.8066868254","roll":"-0.0234973710","yaw":"-0.1705634560","airspeed":"166.3437500000","altitude":"2105.9148608733","heading":{"true":29.68928596107294,"mag":43.41670295326044},"vspeed":"2032.3265906250","ilsDeviation":{"loc":"0.0517781560","gs":"-2.5000000000"},"onTrack":false,"status":0,"lng":-73.88053306432221,"lat":40.48434847061362,"weather":{"wind":{"heading":"345.6640625000","speed":6},"temp":"11.0781250000","turbulance":"N/A"}},"collectorId":"fb0d0289-a40e-4688-b2fb-5f894ba9e7c9","runId":"0"}
{"data":{"ready":true,"paused":false,"onGround":false,"crashed":false,"sts":"2017-09-21T16:50:38Z","ts":"2017-11-11T14:33:44.2806064+11:00","pitch":"8.9488111924","roll":"-0.0222185888","yaw":"-0.1706021183","airspeed":"165.7421875000","altitude":"2110.0559776261","heading":{"true":29.668916811839548,"mag":43.39633380402705},"vspeed":"2066.1602531250","ilsDeviation":{"loc":"0.0517781560","gs":"-2.5000000000"},"onTrack":false,"status":0,"lng":-73.88047966803201,"lat":40.48441889196434,"weather":{"wind":{"heading":"345.5758056641","speed":6},"temp":"11.0664062500","turbulance":"N/A"}},"collectorId":"fb0d0289-a40e-4688-b2fb-5f894ba9e7c9","runId":"0"}
{"data":{"ready":true,"paused":false,"onGround":false,"crashed":false,"sts":"2017-09-21T16:50:38Z","ts":"2017-11-11T14:33:44.3926064+11:00","pitch":"9.0880676038","roll":"-0.0266104210","yaw":"-0.1717370120","airspeed":"165.1484375000","altitude":"2114.1854790683","heading":{"true":29.64868471090536,"mag":43.37610170309286},"vspeed":"2098.4560218750","ilsDeviation":{"loc":"0.0517781560","gs":"-2.5000000000"},"onTrack":false,"status":0,"lng":-73.88042706076754,"lat":40.484488268885556,"weather":{"wind":{"heading":"345.5316772461","speed":6},"temp":"11.0585937500","turbulance":"N/A"}},"collectorId":"fb0d0289-a40e-4688-b2fb-5f894ba9e7c9","runId":"0"}
{"data":{"ready":true,"paused":false,"onGround":false,"crashed":false,"sts":"2017-09-21T16:50:38Z","ts":"2017-11-11T14:33:44.4956064+11:00","pitch":"9.2361523564","roll":"-0.0265391726","yaw":"-0.1720224514","airspeed":"164.5156250000","altitude":"2118.6559971181","heading":{"true":29.626873746507062,"mag":43.35429073869456},"vspeed":"2130.7517906250","ilsDeviation":{"loc":"0.0528293191","gs":"-2.5000000000"},"onTrack":false,"status":0,"lng":-73.88037079638619,"lat":40.48456246438965,"weather":{"wind":{"heading":"345.4876098633","speed":6},"temp":"11.0507812500","turbulance":"N/A"}},"collectorId":"fb0d0289-a40e-4688-b2fb-5f894ba9e7c9","runId":"0"}
{"data":{"ready":true,"paused":false,"onGround":false,"crashed":false,"sts":"2017-09-21T16:50:39Z","ts":"2017-11-11T14:33:44.6206064+11:00","pitch":"9.3857687810","roll":"-0.0283109934","yaw":"-0.1725626773","airspeed":"163.8515625000","altitude":"2123.2565164642","heading":{"true":29.60455524238296,"mag":43.33197223457046},"vspeed":"2163.0475593750","ilsDeviation":{"loc":"0.0528293191","gs":"-2.5000000000"},"onTrack":false,"status":0,"lng":-73.88031360026679,"lat":40.4846378834656,"weather":{"wind":{"heading":"345.3994140625","speed":6},"temp":"11.0390625000","turbulance":"N/A"}},"collectorId":"fb0d0289-a40e-4688-b2fb-5f894ba9e7c9","runId":"0"}
{"data":{"ready":true,"paused":false,"onGround":false,"crashed":false,"sts":"2017-09-21T16:50:39Z","ts":"2017-11-11T14:33:44.7316064+11:00","pitch":"9.5327256303","roll":"-0.0307631102","yaw":"-0.1743163423","airspeed":"163.2031250000","altitude":"2127.8587217525","heading":{"true":29.582349645940223,"mag":43.309766638127726},"vspeed":"2193.8054343750","ilsDeviation":{"loc":"0.0528293191","gs":"-2.5000000000"},"onTrack":false,"status":0,"lng":-73.880257065587,"lat":40.48471242521684,"weather":{"wind":{"heading":"345.3553161621","speed":6},"temp":"11.0312500000","turbulance":"N/A"}},"collectorId":"fb0d0289-a40e-4688-b2fb-5f894ba9e7c9","runId":"0"}
{"data":{"ready":true,"paused":false,"onGround":false,"crashed":false,"sts":"2017-09-21T16:50:39Z","ts":"2017-11-11T14:33:44.8366064+11:00","pitch":"9.6669037106","roll":"-0.0322243720","yaw":"-0.1752107523","airspeed":"162.6093750000","altitude":"2132.1340965394","heading":{"true":29.561838922041783,"mag":43.28925591422929},"vspeed":"2220.7185750000","ilsDeviation":{"loc":"0.0538126643","gs":"-2.5000000000"},"onTrack":false,"status":0,"lng":-73.88020512628384,"lat":40.484780903028714,"weather":{"wind":{"heading":"345.3111877441","speed":6},"temp":"11.0234375000","turbulance":"N/A"}},"collectorId":"fb0d0289-a40e-4688-b2fb-5f894ba9e7c9","runId":"0"}
{"data":{"ready":true,"paused":false,"onGround":false,"crashed":false,"sts":"2017-09-21T16:50:39Z","ts":"2017-11-11T14:33:45.0466064+11:00","pitch":"9.9468279212","roll":"-0.0360946662","yaw":"-0.1784197495","airspeed":"161.3281250000","altitude":"2141.2846502843","heading":{"true":29.51827650657389,"mag":43.24569349876139},"vspeed":"2273.7759093750","ilsDeviation":{"loc":"0.0538126643","gs":"-2.5000000000"},"onTrack":false,"status":0,"lng":-73.88009572326047,"lat":40.48492512593849,"weather":{"wind":{"heading":"345.1788940430","speed":6},"temp":"11.0039062500","turbulance":"N/A"}},"collectorId":"fb0d0289-a40e-4688-b2fb-5f894ba9e7c9","runId":"0"}
{"data":{"ready":true,"paused":false,"onGround":false,"crashed":false,"sts":"2017-09-21T16:50:39Z","ts":"2017-11-11T14:33:45.0466064+11:00","pitch":"9.9468279212","roll":"-0.0360946662","yaw":"-0.1784197495","airspeed":"161.3281250000","altitude":"2141.2846502843","heading":{"true":29.51827650657389,"mag":43.24569349876139},"vspeed":"2273.7759093750","ilsDeviation":{"loc":"0.0538126643","gs":"-2.5000000000"},"onTrack":false,"status":0,"lng":-73.88009572326047,"lat":40.48492512593849,"weather":{"wind":{"heading":"345.1788940430","speed":6},"temp":"11.0039062500","turbulance":"N/A"}},"collectorId":"fb0d0289-a40e-4688-b2fb-5f894ba9e7c9","runId":"0"}
{"data":{"ready":true,"paused":false,"onGround":false,"crashed":false,"sts":"2017-09-21T16:50:39Z","ts":"2017-11-11T14:33:45.1626064+11:00","pitch":"10.0763928804","roll":"-0.0403086290","yaw":"-0.1800129458","airspeed":"160.7343750000","altitude":"2145.6288120136","heading":{"true":29.497739127409915,"mag":43.225156119597415},"vspeed":"2297.6132625000","ilsDeviation":{"loc":"0.0547960049","gs":"-2.5000000000"},"onTrack":false,"status":0,"lng":-73.88004457613171,"lat":40.484992543844754,"weather":{"wind":{"heading":"345.1347656250","speed":6},"temp":"11.0000000000","turbulance":"N/A"}},"collectorId":"fb0d0289-a40e-4688-b2fb-5f894ba9e7c9","runId":"0"}
{"data":{"ready":true,"paused":false,"onGround":false,"crashed":false,"sts":"2017-09-21T16:50:39Z","ts":"2017-11-11T14:33:45.2676064+11:00","pitch":"10.2098998012","roll":"-0.0392849997","yaw":"-0.1823685695","airspeed":"160.0937500000","altitude":"2150.1789392184","heading":{"true":29.47631458054026,"mag":43.20373157272776},"vspeed":"2320.6816687500","ilsDeviation":{"loc":"0.0547960049","gs":"-2.5000000000"},"onTrack":false,"status":0,"lng":-73.87999151224918,"lat":40.4850624822903,"weather":{"wind":{"heading":"345.0465393066","speed":6},"temp":"10.9882812500","turbulance":"N/A"}},"collectorId":"fb0d0289-a40e-4688-b2fb-5f894ba9e7c9","runId":"0"}
{"data":{"ready":true,"paused":false,"onGround":false,"crashed":false,"sts":"2017-09-21T16:50:39Z","ts":"2017-11-11T14:33:45.3826064+11:00","pitch":"10.3579717292","roll":"-0.0436737305","yaw":"-0.1845545115","airspeed":"159.3906250000","altitude":"2155.3158404780","heading":{"true":29.452208413372038,"mag":43.179625405559534},"vspeed":"2346.0569156250","ilsDeviation":{"loc":"0.0547960049","gs":"-2.5000000000"},"onTrack":false,"status":0,"lng":-73.87993221058508,"lat":40.485140635389726,"weather":{"wind":{"heading":"345.0024108887","speed":6},"temp":"10.9804687500","turbulance":"N/A"}},"collectorId":"fb0d0289-a40e-4688-b2fb-5f894ba9e7c9","runId":"0"}
{"data":{"ready":true,"paused":false,"onGround":false,"crashed":false,"sts":"2017-09-21T16:50:39Z","ts":"2017-11-11T14:33:45.4946064+11:00","pitch":"10.4643645451","roll":"-0.0460340627","yaw":"-0.1866223382","airspeed":"158.8828125000","altitude":"2159.0661716714","heading":{"true":29.434651143187654,"mag":43.16206813537515},"vspeed":"2362.9737468750","ilsDeviation":{"loc":"0.0557793501","gs":"-2.5000000000"},"onTrack":false,"status":0,"lng":-73.87988929368012,"lat":40.485197189845465,"weather":{"wind":{"heading":"344.9583435059","speed":6},"temp":"10.9726562500","turbulance":"N/A"}},"collectorId":"fb0d0289-a40e-4688-b2fb-5f894ba9e7c9","runId":"0"}
{"data":{"ready":true,"paused":false,"onGround":false,"crashed":false,"sts":"2017-09-21T16:50:39Z","ts":"2017-11-11T14:33:45.6026064+11:00","pitch":"10.5991095109","roll":"-0.0490593515","yaw":"-0.1899784058","airspeed":"158.2187500000","altitude":"2163.8898876819","heading":{"true":29.412113864714364,"mag":43.139530856901864},"vspeed":"2384.5042593750","ilsDeviation":{"loc":"0.0557793501","gs":"-2.5000000000"},"onTrack":false,"status":0,"lng":-73.87983455173706,"lat":40.48526932099916,"weather":{"wind":{"heading":"344.8701171875","speed":6},"temp":"10.9609375000","turbulance":"N/A"}},"collectorId":"fb0d0289-a40e-4688-b2fb-5f894ba9e7c9","runId":"0"}
{"data":{"ready":true,"paused":false,"onGround":false,"crashed":false,"sts":"2017-09-21T16:50:40Z","ts":"2017-11-11T14:33:45.7186064+11:00","pitch":"10.7371774997","roll":"-0.0501880092","yaw":"-0.1925252840","airspeed":"157.5390625000","altitude":"2168.9198039274","heading":{"true":29.388624624446535,"mag":43.116041616634035},"vspeed":"2405.2658250000","ilsDeviation":{"loc":"0.0557793501","gs":"-2.5000000000"},"onTrack":false,"status":0,"lng":-73.87977798515826,"lat":40.485343848441005,"weather":{"wind":{"heading":"344.8259887695","speed":6},"temp":"10.9531250000","turbulance":"N/A"}},"collectorId":"fb0d0289-a40e-4688-b2fb-5f894ba9e7c9","runId":"0"}
{"data":{"ready":true,"paused":false,"onGround":false,"crashed":false,"sts":"2017-09-21T16:50:40Z","ts":"2017-11-11T14:33:45.8296064+11:00","pitch":"10.8730614332","roll":"-0.0510134004","yaw":"-0.1964838070","airspeed":"156.8515625000","altitude":"2173.9592222710","heading":{"true":29.365102023185994,"mag":43.0925190153735},"vspeed":"2425.2584437500","ilsDeviation":{"loc":"0.0567287864","gs":"-2.5000000000"},"onTrack":false,"status":0,"lng":-73.87972181610331,"lat":40.485417843996636,"weather":{"wind":{"heading":"344.7378234863","speed":6},"temp":"10.9414062500","turbulance":"N/A"}},"collectorId":"fb0d0289-a40e-4688-b2fb-5f894ba9e7c9","runId":"0"}
{"data":{"ready":true,"paused":false,"onGround":false,"crashed":false,"sts":"2017-09-21T16:50:40Z","ts":"2017-11-11T14:33:45.9356064+11:00","pitch":"10.9858090992","roll":"-0.0541821080","yaw":"-0.1988374725","airspeed":"156.2734375000","altitude":"2178.2095721285","heading":{"true":29.345237982852304,"mag":43.072654975039804},"vspeed":"2441.4063281250","ilsDeviation":{"loc":"0.0567287864","gs":"-2.5000000000"},"onTrack":false,"status":0,"lng":-73.87967481385027,"lat":40.48547975683651,"weather":{"wind":{"heading":"344.6936950684","speed":6},"temp":"10.9335937500","turbulance":"N/A"}},"collectorId":"fb0d0289-a40e-4688-b2fb-5f894ba9e7c9","runId":"0"}
{"data":{"ready":true,"paused":false,"onGround":false,"crashed":false,"sts":"2017-09-21T16:50:40Z","ts":"2017-11-11T14:33:46.0426064+11:00","pitch":"11.1174615512","roll":"-0.0528113735","yaw":"-0.2031248895","airspeed":"155.5859375000","altitude":"2183.2545549825","heading":{"true":29.321619657336292,"mag":43.04903664952379},"vspeed":"2459.0921062500","ilsDeviation":{"loc":"0.0567287864","gs":"-2.5000000000"},"onTrack":false,"status":0,"lng":-73.87961944881916,"lat":40.48555267767728,"weather":{"wind":{"heading":"344.6054382324","speed":6},"temp":"10.9218750000","turbulance":"N/A"}},"collectorId":"fb0d0289-a40e-4688-b2fb-5f894ba9e7c9","runId":"0"}
{"data":{"ready":true,"paused":false,"onGround":false,"crashed":false,"sts":"2017-09-21T16:50:40Z","ts":"2017-11-11T14:33:46.1476064+11:00","pitch":"11.2350605593","roll":"-0.0562328031","yaw":"-0.2061669046","airspeed":"154.9687500000","altitude":"2187.8377766090","heading":{"true":29.300110366839423,"mag":43.02752735902692},"vspeed":"2474.4710437500","ilsDeviation":{"loc":"0.0576443137","gs":"-2.5000000000"},"onTrack":false,"status":0,"lng":-73.87956952988884,"lat":40.48561841787246,"weather":{"wind":{"heading":"344.5614013672","speed":6},"temp":"10.9140625000","turbulance":"N/A"}},"collectorId":"fb0d0289-a40e-4688-b2fb-5f894ba9e7c9","runId":"0"}
{"data":{"ready":true,"paused":false,"onGround":false,"crashed":false,"sts":"2017-09-21T16:50:40Z","ts":"2017-11-11T14:33:46.2636064+11:00","pitch":"11.3528114521","roll":"-0.0591965669","yaw":"-0.2090980204","airspeed":"154.3359375000","altitude":"2192.5018999896","heading":{"true":29.27814097963654,"mag":43.00555797182404},"vspeed":"2489.0810343750","ilsDeviation":{"loc":"0.0576443137","gs":"-2.5000000000"},"onTrack":false,"status":0,"lng":-73.87951908078011,"lat":40.48568484854492,"weather":{"wind":{"heading":"344.4731750488","speed":6},"temp":"10.9062500000","turbulance":"N/A"}},"collectorId":"fb0d0289-a40e-4688-b2fb-5f894ba9e7c9","runId":"0"}
{"data":{"ready":true,"paused":false,"onGround":false,"crashed":false,"sts":"2017-09-21T16:50:40Z","ts":"2017-11-11T14:33:46.3686064+11:00","pitch":"11.4774576765","roll":"-0.0584281744","yaw":"-0.2138292179","airspeed":"153.6640625000","altitude":"2197.5239559719","heading":{"true":29.254398598167732,"mag":42.98181559035523},"vspeed":"2503.6910250000","ilsDeviation":{"loc":"0.0576443137","gs":"-2.5000000000"},"onTrack":false,"status":0,"lng":-73.87946513873152,"lat":40.48575586995026,"weather":{"wind":{"heading":"344.4290466309","speed":6},"temp":"10.8945312500","turbulance":"N/A"}},"collectorId":"fb0d0289-a40e-4688-b2fb-5f894ba9e7c9","runId":"0"}
{"data":{"ready":true,"paused":false,"onGround":false,"crashed":false,"sts":"2017-09-21T16:50:40Z","ts":"2017-11-11T14:33:46.5766064+11:00","pitch":"11.7002200055","roll":"-0.0623875710","yaw":"-0.2218923847","airspeed":"152.4296875000","altitude":"2206.7244752754","heading":{"true":29.210563594890047,"mag":42.93798058707755},"vspeed":"2528.2973250000","ilsDeviation":{"loc":"0.0585598411","gs":"-2.5000000000"},"onTrack":false,"status":0,"lng":-73.87936726059483,"lat":40.485884713995766,"weather":{"wind":{"heading":"344.2967224121","speed":7},"temp":"10.8750000000","turbulance":"N/A"}},"collectorId":"fb0d0289-a40e-4688-b2fb-5f894ba9e7c9","runId":"0"}
{"data":{"ready":true,"paused":false,"onGround":false,"crashed":false,"sts":"2017-09-21T16:50:40Z","ts":"2017-11-11T14:33:46.6826064+11:00","pitch":"11.8156972377","roll":"-0.0652894745","yaw":"-0.2252307017","airspeed":"151.7812500000","altitude":"2211.6113207667","heading":{"true":29.187075695767653,"mag":42.91449268795515},"vspeed":"2539.8315281250","ilsDeviation":{"loc":"0.0585598411","gs":"-2.5000000000"},"onTrack":false,"status":0,"lng":-73.87931573625447,"lat":40.48595252604415,"weather":{"wind":{"heading":"344.2525939941","speed":7},"temp":"10.8710937500","turbulance":"N/A"}},"collectorId":"fb0d0289-a40e-4688-b2fb-5f894ba9e7c9","runId":"0"}
{"data":{"ready":true,"paused":false,"onGround":false,"crashed":false,"sts":"2017-09-21T16:50:40Z","ts":"2017-11-11T14:33:46.6826064+11:00","pitch":"11.8156972377","roll":"-0.0652894745","yaw":"-0.2252307017","airspeed":"151.7812500000","altitude":"2211.6113207667","heading":{"true":29.187075695767653,"mag":42.91449268795515},"vspeed":"2539.8315281250","ilsDeviation":{"loc":"0.0585598411","gs":"-2.5000000000"},"onTrack":false,"status":0,"lng":-73.87931573625447,"lat":40.48595252604415,"weather":{"wind":{"heading":"344.2525939941","speed":7},"temp":"10.8710937500","turbulance":"N/A"}},"collectorId":"fb0d0289-a40e-4688-b2fb-5f894ba9e7c9","runId":"0"}
{"data":{"ready":true,"paused":false,"onGround":false,"crashed":false,"sts":"2017-09-21T16:50:41Z","ts":"2017-11-11T14:33:46.7916064+11:00","pitch":"11.9293918361","roll":"-0.0656866211","yaw":"-0.2304771271","airspeed":"151.1250000000","altitude":"2216.5033331145","heading":{"true":29.163393079092323,"mag":42.89081007127982},"vspeed":"2550.5967843750","ilsDeviation":{"loc":"0.0594414595","gs":"-2.5000000000"},"onTrack":false,"status":0,"lng":-73.87926444744257,"lat":40.48602001789426,"weather":{"wind":{"heading":"344.1643981934","speed":7},"temp":"10.8593750000","turbulance":"N/A"}},"collectorId":"fb0d0289-a40e-4688-b2fb-5f894ba9e7c9","runId":"0"}
{"data":{"ready":true,"paused":false,"onGround":false,"crashed":false,"sts":"2017-09-21T16:50:41Z","ts":"2017-11-11T14:33:46.7916064+11:00","pitch":"11.9293918361","roll":"-0.0656866211","yaw":"-0.2304771271","airspeed":"151.1250000000","altitude":"2216.5033331145","heading":{"true":29.163393079092323,"mag":42.89081007127982},"vspeed":"2550.5967843750","ilsDeviation":{"loc":"0.0594414595","gs":"-2.5000000000"},"onTrack":false,"status":0,"lng":-73.87926444744257,"lat":40.48602001789426,"weather":{"wind":{"heading":"344.1643981934","speed":7},"temp":"10.8593750000","turbulance":"N/A"}},"collectorId":"fb0d0289-a40e-4688-b2fb-5f894ba9e7c9","runId":"0"}
{"data":{"ready":true,"paused":false,"onGround":false,"crashed":false,"sts":"2017-09-21T16:50:41Z","ts":"2017-11-11T14:33:47.0176064+11:00","pitch":"12.1547121485","roll":"-0.0684947282","yaw":"-0.2395268138","airspeed":"149.7890625000","altitude":"2226.4481925761","heading":{"true":29.114681168081095,"mag":42.84209816026859},"vspeed":"2569.8204562500","ilsDeviation":{"loc":"0.0594414595","gs":"-2.5000000000"},"onTrack":false,"status":0,"lng":-73.87916102711105,"lat":40.48615608021639,"weather":{"wind":{"heading":"344.0320434570","speed":7},"temp":"10.8359375000","turbulance":"N/A"}},"collectorId":"fb0d0289-a40e-4688-b2fb-5f894ba9e7c9","runId":"0"}
{"data":{"ready":true,"paused":false,"onGround":false,"crashed":false,"sts":"2017-09-21T16:50:41Z","ts":"2017-11-11T14:33:47.2276064+11:00","pitch":"12.3591245904","roll":"-0.0733137152","yaw":"-0.2485672535","airspeed":"148.5390625000","altitude":"2235.7776961477","heading":{"true":29.068198827535035,"mag":42.795615819722535},"vspeed":"2584.4304468750","ilsDeviation":{"loc":"0.0603230779","gs":"-2.5000000000"},"onTrack":false,"status":0,"lng":-73.87906492604988,"lat":40.486282474241406,"weather":{"wind":{"heading":"343.8997497559","speed":7},"temp":"10.8203125000","turbulance":"N/A"}},"collectorId":"fb0d0289-a40e-4688-b2fb-5f894ba9e7c9","runId":"0"}
{"data":{"ready":true,"paused":false,"onGround":false,"crashed":false,"sts":"2017-09-21T16:50:41Z","ts":"2017-11-11T14:33:47.3406064+11:00","pitch":"12.4672898976","roll":"-0.0734156423","yaw":"-0.2527374104","airspeed":"147.8671875000","altitude":"2240.8421633562","heading":{"true":29.042613125486525,"mag":42.770030117674025},"vspeed":"2591.3509687500","ilsDeviation":{"loc":"0.0603230779","gs":"-2.5000000000"},"onTrack":false,"status":0,"lng":-73.87901308969403,"lat":40.48635063394961,"weather":{"wind":{"heading":"343.8556823730","speed":7},"temp":"10.8125000000","turbulance":"N/A"}},"collectorId":"fb0d0289-a40e-4688-b2fb-5f894ba9e7c9","runId":"0"}
{"data":{"ready":true,"paused":false,"onGround":false,"crashed":false,"sts":"2017-09-21T16:50:41Z","ts":"2017-11-11T14:33:47.4546064+11:00","pitch":"12.5708609436","roll":"-0.0747440468","yaw":"-0.2583957253","airspeed":"147.2031250000","altitude":"2245.7801597775","heading":{"true":29.017418534975686,"mag":42.74483552716319},"vspeed":"2596.7335968750","ilsDeviation":{"loc":"0.0611707920","gs":"-2.5000000000"},"onTrack":false,"status":0,"lng":-73.87896275179773,"lat":40.48641681182995,"weather":{"wind":{"heading":"343.7673950195","speed":7},"temp":"10.8007812500","turbulance":"N/A"}},"collectorId":"fb0d0289-a40e-4688-b2fb-5f894ba9e7c9","runId":"0"}
{"data":{"ready":true,"paused":false,"onGround":false,"crashed":false,"sts":"2017-09-21T16:50:41Z","ts":"2017-11-11T14:33:47.5566064+11:00","pitch":"12.6658435456","roll":"-0.0762042189","yaw":"-0.2624184689","airspeed":"146.5937500000","altitude":"2250.3887845474","heading":{"true":28.993661652371856,"mag":42.721078644559356},"vspeed":"2601.3472781250","ilsDeviation":{"loc":"0.0611707920","gs":"-2.5000000000"},"onTrack":false,"status":0,"lng":-73.8789159371442,"lat":40.486478347019926,"weather":{"wind":{"heading":"343.7233276367","speed":7},"temp":"10.7929687500","turbulance":"N/A"}},"collectorId":"fb0d0289-a40e-4688-b2fb-5f894ba9e7c9","runId":"0"}
{"data":{"ready":true,"paused":false,"onGround":false,"crashed":false,"sts":"2017-09-21T16:50:41Z","ts":"2017-11-11T14:33:47.5566064+11:00","pitch":"12.6658435456","roll":"-0.0762042189","yaw":"-0.2624184689","airspeed":"146.5937500000","altitude":"2250.3887845474","heading":{"true":28.993661652371856,"mag":42.721078644559356},"vspeed":"2601.3472781250","ilsDeviation":{"loc":"0.0611707920","gs":"-2.5000000000"},"onTrack":false,"status":0,"lng":-73.8789159371442,"lat":40.486478347019926,"weather":{"wind":{"heading":"343.7233276367","speed":7},"temp":"10.7929687500","turbulance":"N/A"}},"collectorId":"fb0d0289-a40e-4688-b2fb-5f894ba9e7c9","runId":"0"}
{"data":{"ready":true,"paused":false,"onGround":false,"crashed":false,"sts":"2017-09-21T16:50:41Z","ts":"2017-11-11T14:33:47.5566064+11:00","pitch":"12.6658435456","roll":"-0.0762042189","yaw":"-0.2624184689","airspeed":"146.5937500000","altitude":"2250.3887845474","heading":{"true":28.993661652371856,"mag":42.721078644559356},"vspeed":"2601.3472781250","ilsDeviation":{"loc":"0.0611707920","gs":"-2.5000000000"},"onTrack":false,"status":0,"lng":-73.8789159371442,"lat":40.486478347019926,"weather":{"wind":{"heading":"343.7233276367","speed":7},"temp":"10.7929687500","turbulance":"N/A"}},"collectorId":"fb0d0289-a40e-4688-b2fb-5f894ba9e7c9","runId":"0"}
{"data":{"ready":true,"paused":false,"onGround":false,"crashed":false,"sts":"2017-09-21T16:50:41Z","ts":"2017-11-11T14:33:47.7716064+11:00","pitch":"12.8552394335","roll":"-0.0794792123","yaw":"-0.2721759905","airspeed":"145.3281250000","altitude":"2259.8251171143","heading":{"true":28.944285455262033,"mag":42.67170244744953},"vspeed":"2608.2678000000","ilsDeviation":{"loc":"0.0619506836","gs":"-2.5000000000"},"onTrack":false,"status":0,"lng":-73.87882053237045,"lat":40.48660371813379,"weather":{"wind":{"heading":"343.5910034180","speed":7},"temp":"10.7734375000","turbulance":"N/A"}},"collectorId":"fb0d0289-a40e-4688-b2fb-5f894ba9e7c9","runId":"0"}
{"data":{"ready":true,"paused":false,"onGround":false,"crashed":false,"sts":"2017-09-21T16:50:42Z","ts":"2017-11-11T14:33:47.8836064+11:00","pitch":"12.9506694752","roll":"-0.0808994853","yaw":"-0.2776672479","airspeed":"144.6640625000","altitude":"2264.7139304829","heading":{"true":28.918292547930626,"mag":42.645709540118126},"vspeed":"2610.5746406250","ilsDeviation":{"loc":"0.0619506836","gs":"-2.5000000000"},"onTrack":false,"status":0,"lng":-73.87877131370706,"lat":40.48666837804997,"weather":{"wind":{"heading":"343.5027770996","speed":7},"temp":"10.7617187500","turbulance":"N/A"}},"collectorId":"fb0d0289-a40e-4688-b2fb-5f894ba9e7c9","runId":"0"}
{"data":{"ready":true,"paused":false,"onGround":false,"crashed":false,"sts":"2017-09-21T16:50:42Z","ts":"2017-11-11T14:33:47.9956064+11:00","pitch":"13.0452755506","roll":"-0.0825395385","yaw":"-0.2824126924","airspeed":"144.0156250000","altitude":"2269.6570369999","heading":{"true":28.89171397915179,"mag":42.61913097133929},"vspeed":"2612.1125343750","ilsDeviation":{"loc":"0.0619506836","gs":"-2.5000000000"},"onTrack":false,"status":0,"lng":-73.8787216733112,"lat":40.4867335788458,"weather":{"wind":{"heading":"343.4586791992","speed":7},"temp":"10.7539062500","turbulance":"N/A"}},"collectorId":"fb0d0289-a40e-4688-b2fb-5f894ba9e7c9","runId":"0"}
{"data":{"ready":true,"paused":false,"onGround":false,"crashed":false,"sts":"2017-09-21T16:50:42Z","ts":"2017-11-11T14:33:48.0996064+11:00","pitch":"13.1282068713","roll":"-0.0846323121","yaw":"-0.2862720792","airspeed":"143.4062500000","altitude":"2274.0794393053","heading":{"true":28.867666151810013,"mag":42.59508314399751},"vspeed":"2612.8814812500","ilsDeviation":{"loc":"0.0619506836","gs":"-2.5000000000"},"onTrack":false,"status":0,"lng":-73.87867735676788,"lat":40.48679177551329,"weather":{"wind":{"heading":"343.3704223633","speed":7},"temp":"10.7421875000","turbulance":"N/A"}},"collectorId":"fb0d0289-a40e-4688-b2fb-5f894ba9e7c9","runId":"0"}
{"data":{"ready":true,"paused":false,"onGround":false,"crashed":false,"sts":"2017-09-21T16:50:42Z","ts":"2017-11-11T14:33:48.2126064+11:00","pitch":"13.2190784434","roll":"-0.0849796688","yaw":"-0.2926619084","airspeed":"142.7500000000","altitude":"2279.0380474719","heading":{"true":28.84039429466254,"mag":42.567811286850045},"vspeed":"2612.8814812500","ilsDeviation":{"loc":"0.0627644841","gs":"-2.5000000000"},"onTrack":false,"status":0,"lng":-73.87862775858264,"lat":40.48685689470801,"weather":{"wind":{"heading":"343.3263854980","speed":7},"temp":"10.7343750000","turbulance":"N/A"}},"collectorId":"fb0d0289-a40e-4688-b2fb-5f894ba9e7c9","runId":"0"}
{"data":{"ready":true,"paused":false,"onGround":false,"crashed":false,"sts":"2017-09-21T16:50:42Z","ts":"2017-11-11T14:33:48.3256064+11:00","pitch":"13.3064989969","roll":"-0.0865382475","yaw":"-0.2970873186","airspeed":"142.0859375000","altitude":"2283.9371572555","heading":{"true":28.813128221204757,"mag":42.54054521339226},"vspeed":"2611.3435875000","ilsDeviation":{"loc":"0.0627644841","gs":"-2.5000000000"},"onTrack":false,"status":0,"lng":-73.87857883707937,"lat":40.48692111134526,"weather":{"wind":{"heading":"343.2380981445","speed":7},"temp":"10.7226562500","turbulance":"N/A"}},"collectorId":"fb0d0289-a40e-4688-b2fb-5f894ba9e7c9","runId":"0"}
{"data":{"ready":true,"paused":false,"onGround":false,"crashed":false,"sts":"2017-09-21T16:50:42Z","ts":"2017-11-11T14:33:48.4406064+11:00","pitch":"13.3844423462","roll":"-0.0870695925","yaw":"-0.3032711498","airspeed":"141.4843750000","altitude":"2288.4264927268","heading":{"true":28.787844612165625,"mag":42.51526160435313},"vspeed":"2609.8056937500","ilsDeviation":{"loc":"0.0627644841","gs":"-2.5000000000"},"onTrack":false,"status":0,"lng":-73.87853406508516,"lat":40.48697986836651,"weather":{"wind":{"heading":"343.1940612793","speed":7},"temp":"10.7148437500","turbulance":"N/A"}},"collectorId":"fb0d0289-a40e-4688-b2fb-5f894ba9e7c9","runId":"0"}
{"data":{"ready":true,"paused":false,"onGround":false,"crashed":false,"sts":"2017-09-21T16:50:42Z","ts":"2017-11-11T14:33:48.5446064+11:00","pitch":"13.4683119657","roll":"-0.0892911999","yaw":"-0.3078238102","airspeed":"140.8203125000","altitude":"2293.4019111200","heading":{"true":28.7594829905301,"mag":42.4868999827176},"vspeed":"2607.4988531250","ilsDeviation":{"loc":"0.0634765625","gs":"-2.5000000000"},"onTrack":false,"status":0,"lng":-73.87848449531293,"lat":40.487044907139605,"weather":{"wind":{"heading":"343.1499328613","speed":7},"temp":"10.7070312500","turbulance":"N/A"}},"collectorId":"fb0d0289-a40e-4688-b2fb-5f894ba9e7c9","runId":"0"}
{"data":{"ready":true,"paused":false,"onGround":false,"crashed":false,"sts":"2017-09-21T16:50:42Z","ts":"2017-11-11T14:33:48.7516064+11:00","pitch":"13.6109580383","roll":"-0.0907858227","yaw":"-0.3190568402","airspeed":"139.6250000000","altitude":"2302.2662735477","heading":{"true":28.708036986905128,"mag":42.43545397909263},"vspeed":"2600.5783312500","ilsDeviation":{"loc":"0.0634765625","gs":"-2.5000000000"},"onTrack":false,"status":0,"lng":-73.87839626209774,"lat":40.48716063550657,"weather":{"wind":{"heading":"343.0176391602","speed":7},"temp":"10.6875000000","turbulance":"N/A"}},"collectorId":"fb0d0289-a40e-4688-b2fb-5f894ba9e7c9","runId":"0"}
{"data":{"ready":true,"paused":false,"onGround":false,"crashed":false,"sts":"2017-09-21T16:50:42Z","ts":"2017-11-11T14:33:48.7516064+11:00","pitch":"13.6109580383","roll":"-0.0907858227","yaw":"-0.3190568402","airspeed":"139.6250000000","altitude":"2302.2662735477","heading":{"true":28.708036986905128,"mag":42.43545397909263},"vspeed":"2600.5783312500","ilsDeviation":{"loc":"0.0634765625","gs":"-2.5000000000"},"onTrack":false,"status":0,"lng":-73.87839626209774,"lat":40.48716063550657,"weather":{"wind":{"heading":"343.0176391602","speed":7},"temp":"10.6875000000","turbulance":"N/A"}},"collectorId":"fb0d0289-a40e-4688-b2fb-5f894ba9e7c9","runId":"0"}
{"data":{"ready":true,"paused":false,"onGround":false,"crashed":false,"sts":"2017-09-21T16:50:42Z","ts":"2017-11-11T14:33:48.7516064+11:00","pitch":"13.6109580383","roll":"-0.0907858227","yaw":"-0.3190568402","airspeed":"139.6250000000","altitude":"2302.2662735477","heading":{"true":28.708036986905128,"mag":42.43545397909263},"vspeed":"2600.5783312500","ilsDeviation":{"loc":"0.0634765625","gs":"-2.5000000000"},"onTrack":false,"status":0,"lng":-73.87839626209774,"lat":40.48716063550657,"weather":{"wind":{"heading":"343.0176391602","speed":7},"temp":"10.6875000000","turbulance":"N/A"}},"collectorId":"fb0d0289-a40e-4688-b2fb-5f894ba9e7c9","runId":"0"}
{"data":{"ready":true,"paused":false,"onGround":false,"crashed":false,"sts":"2017-09-21T16:50:43Z","ts":"2017-11-11T14:33:48.9866064+11:00","pitch":"13.7559357761","roll":"-0.0913933616","yaw":"-0.3306912430","airspeed":"138.3046875000","altitude":"2311.9079487186","heading":{"true":28.65067275993743,"mag":42.37808975212493},"vspeed":"2589.8130750000","ilsDeviation":{"loc":"0.0642225498","gs":"-2.5000000000"},"onTrack":false,"status":0,"lng":-73.87830031294713,"lat":40.48728642389315,"weather":{"wind":{"heading":"342.8853149414","speed":7},"temp":"10.6679687500","turbulance":"N/A"}},"collectorId":"fb0d0289-a40e-4688-b2fb-5f894ba9e7c9","runId":"0"}
{"data":{"ready":true,"paused":false,"onGround":false,"crashed":false,"sts":"2017-09-21T16:50:43Z","ts":"2017-11-11T14:33:49.0936064+11:00","pitch":"13.8205701010","roll":"-0.0925856399","yaw":"-0.3351879815","airspeed":"137.6796875000","altitude":"2316.4573770298","heading":{"true":28.623070310440067,"mag":42.35048730262757},"vspeed":"2583.6615000000","ilsDeviation":{"loc":"0.0642225498","gs":"-2.5000000000"},"onTrack":false,"status":0,"lng":-73.87825501254231,"lat":40.48734578962117,"weather":{"wind":{"heading":"342.8411865234","speed":7},"temp":"10.6640625000","turbulance":"N/A"}},"collectorId":"fb0d0289-a40e-4688-b2fb-5f894ba9e7c9","runId":"0"}
{"data":{"ready":true,"paused":false,"onGround":false,"crashed":false,"sts":"2017-09-21T16:50:43Z","ts":"2017-11-11T14:33:49.1966064+11:00","pitch":"13.8784603085","roll":"-0.0938427122","yaw":"-0.3416512315","airspeed":"137.1093750000","altitude":"2320.6876013890","heading":{"true":28.597087629342607,"mag":42.32450462153011},"vspeed":"2577.5099250000","ilsDeviation":{"loc":"0.0649007146","gs":"-2.5000000000"},"onTrack":false,"status":0,"lng":-73.87821285681147,"lat":40.48740102048994,"weather":{"wind":{"heading":"342.7529907227","speed":7},"temp":"10.6523437500","turbulance":"N/A"}},"collectorId":"fb0d0289-a40e-4688-b2fb-5f894ba9e7c9","runId":"0"}
{"data":{"ready":true,"paused":false,"onGround":false,"crashed":false,"sts":"2017-09-21T16:50:43Z","ts":"2017-11-11T14:33:49.4266064+11:00","pitch":"13.9943721556","roll":"-0.0937969457","yaw":"-0.3517044633","airspeed":"135.8828125000","altitude":"2329.6837677303","heading":{"true":28.54075331824789,"mag":42.268170310435394},"vspeed":"2561.3620406250","ilsDeviation":{"loc":"0.0649007146","gs":"-2.5000000000"},"onTrack":false,"status":0,"lng":-73.87812304241689,"lat":40.48751864590832,"weather":{"wind":{"heading":"342.6648254395","speed":7},"temp":"10.6367187500","turbulance":"N/A"}},"collectorId":"fb0d0289-a40e-4688-b2fb-5f894ba9e7c9","runId":"0"}
{"data":{"ready":true,"paused":false,"onGround":false,"crashed":false,"sts":"2017-09-21T16:50:43Z","ts":"2017-11-11T14:33:49.4266064+11:00","pitch":"13.9943721556","roll":"-0.0937969457","yaw":"-0.3517044633","airspeed":"135.8828125000","altitude":"2329.6837677303","heading":{"true":28.54075331824789,"mag":42.268170310435394},"vspeed":"2561.3620406250","ilsDeviation":{"loc":"0.0649007146","gs":"-2.5000000000"},"onTrack":false,"status":0,"lng":-73.87812304241689,"lat":40.48751864590832,"weather":{"wind":{"heading":"342.6648254395","speed":7},"temp":"10.6367187500","turbulance":"N/A"}},"collectorId":"fb0d0289-a40e-4688-b2fb-5f894ba9e7c9","runId":"0"}
{"data":{"ready":true,"paused":false,"onGround":false,"crashed":false,"sts":"2017-09-21T16:50:43Z","ts":"2017-11-11T14:33:49.5306064+11:00","pitch":"14.0536190155","roll":"-0.0942716273","yaw":"-0.3591745240","airspeed":"135.1953125000","altitude":"2334.6102049108","heading":{"true":28.50925844558834,"mag":42.236675437775844},"vspeed":"2551.3657312500","ilsDeviation":{"loc":"0.0655449751","gs":"-2.5000000000"},"onTrack":false,"status":0,"lng":-73.87807373130728,"lat":40.487583198921435,"weather":{"wind":{"heading":"342.5765380859","speed":7},"temp":"10.6250000000","turbulance":"N/A"}},"collectorId":"fb0d0289-a40e-4688-b2fb-5f894ba9e7c9","runId":"0"}
{"data":{"ready":true,"paused":false,"onGround":false,"crashed":false,"sts":"2017-09-21T16:50:43Z","ts":"2017-11-11T14:33:49.6346064+11:00","pitch":"14.1011730989","roll":"-0.0948640783","yaw":"-0.3637485604","airspeed":"134.6328125000","altitude":"2338.7612650995","heading":{"true":28.482354397576593,"mag":42.20977138976409},"vspeed":"2542.1383687500","ilsDeviation":{"loc":"0.0655449751","gs":"-2.5000000000"},"onTrack":false,"status":0,"lng":-73.87803209115101,"lat":40.4876376942083,"weather":{"wind":{"heading":"342.5324707031","speed":7},"temp":"10.6171875000","turbulance":"N/A"}},"collectorId":"fb0d0289-a40e-4688-b2fb-5f894ba9e7c9","runId":"0"}
{"data":{"ready":true,"paused":false,"onGround":false,"crashed":false,"sts":"2017-09-21T16:50:43Z","ts":"2017-11-11T14:33:49.7466064+11:00","pitch":"14.1507703335","roll":"-0.0944967721","yaw":"-0.3690014745","airspeed":"134.0000000000","altitude":"2343.3097768363","heading":{"true":28.45247049205002,"mag":42.17988748423752},"vspeed":"2531.3731125000","ilsDeviation":{"loc":"0.0655449751","gs":"-2.5000000000"},"onTrack":false,"status":0,"lng":-73.87798635198482,"lat":40.48769753681854,"weather":{"wind":{"heading":"342.4442138672","speed":7},"temp":"10.6093750000","turbulance":"N/A"}},"collectorId":"fb0d0289-a40e-4688-b2fb-5f894ba9e7c9","runId":"0"}
{"data":{"ready":true,"paused":false,"onGround":false,"crashed":false,"sts":"2017-09-21T16:50:43Z","ts":"2017-11-11T14:33:49.8516064+11:00","pitch":"14.1971854491","roll":"-0.0948740531","yaw":"-0.3767648637","airspeed":"133.3593750000","altitude":"2347.8063518892","heading":{"true":28.422494885704285,"mag":42.14991187789178},"vspeed":"2519.8389093750","ilsDeviation":{"loc":"0.0661892356","gs":"-2.5000000000"},"onTrack":false,"status":0,"lng":-73.87794100217636,"lat":40.48775685188751,"weather":{"wind":{"heading":"342.4001464844","speed":7},"temp":"10.5976562500","turbulance":"N/A"}},"collectorId":"fb0d0289-a40e-4688-b2fb-5f894ba9e7c9","runId":"0"}
{"data":{"ready":true,"paused":false,"onGround":false,"crashed":false,"sts":"2017-09-21T16:50:43Z","ts":"2017-11-11T14:33:49.9656064+11:00","pitch":"14.2405225522","roll":"-0.0953442922","yaw":"-0.3822505797","airspeed":"132.7578125000","altitude":"2352.2569726988","heading":{"true":28.392394049903498,"mag":42.119811042091},"vspeed":"2507.5357593750","ilsDeviation":{"loc":"0.0661892356","gs":"-2.5000000000"},"onTrack":false,"status":0,"lng":-73.87789596596473,"lat":40.48781573813026,"weather":{"wind":{"heading":"342.3560485840","speed":7},"temp":"10.5898437500","turbulance":"N/A"}},"collectorId":"fb0d0289-a40e-4688-b2fb-5f894ba9e7c9","runId":"0"}
{"data":{"ready":true,"paused":false,"onGround":false,"crashed":false,"sts":"2017-09-21T16:50:44Z","ts":"2017-11-11T14:33:50.0796064+11:00","pitch":"14.2790613721","roll":"-0.0963993546","yaw":"-0.3870644988","airspeed":"132.1640625000","altitude":"2356.4645374971","heading":{"true":28.363519356317248,"mag":42.09093634850475},"vspeed":"2494.4636625000","ilsDeviation":{"loc":"0.0661892356","gs":"-2.5000000000"},"onTrack":false,"status":0,"lng":-73.87785323657981,"lat":40.48787159105461,"weather":{"wind":{"heading":"342.2678222656","speed":7},"temp":"10.5820312500","turbulance":"N/A"}},"collectorId":"fb0d0289-a40e-4688-b2fb-5f894ba9e7c9","runId":"0"}
{"data":{"ready":true,"paused":false,"onGround":false,"crashed":false,"sts":"2017-09-21T16:50:44Z","ts":"2017-11-11T14:33:50.1866064+11:00","pitch":"14.3166064033","roll":"-0.0966172069","yaw":"-0.3956443282","airspeed":"131.5468750000","altitude":"2360.8430412865","heading":{"true":28.3330248943311,"mag":42.0604418865186},"vspeed":"2480.6226187500","ilsDeviation":{"loc":"0.0667656782","gs":"-2.5000000000"},"onTrack":false,"status":0,"lng":-73.87780859347372,"lat":40.48792992677019,"weather":{"wind":{"heading":"342.2237243652","speed":7},"temp":"10.5742187500","turbulance":"N/A"}},"collectorId":"fb0d0289-a40e-4688-b2fb-5f894ba9e7c9","runId":"0"}
{"data":{"ready":true,"paused":false,"onGround":false,"crashed":false,"sts":"2017-09-21T16:50:44Z","ts":"2017-11-11T14:33:50.2906064+11:00","pitch":"14.3495622025","roll":"-0.0949237593","yaw":"-0.4008676934","airspeed":"130.9687500000","altitude":"2364.9719800669","heading":{"true":28.303836707999267,"mag":42.03125370018677},"vspeed":"2466.7815750000","ilsDeviation":{"loc":"0.0667656782","gs":"-2.5000000000"},"onTrack":false,"status":0,"lng":-73.87776631250424,"lat":40.487985158351535,"weather":{"wind":{"heading":"342.1795959473","speed":7},"temp":"10.5664062500","turbulance":"N/A"}},"collectorId":"fb0d0289-a40e-4688-b2fb-5f894ba9e7c9","runId":"0"}
{"data":{"ready":true,"paused":false,"onGround":false,"crashed":false,"sts":"2017-09-21T16:50:44Z","ts":"2017-11-11T14:33:50.5086064+11:00","pitch":"14.4101426638","roll":"-0.0944846180","yaw":"-0.4145900879","airspeed":"129.7500000000","altitude":"2373.5494079243","heading":{"true":28.24179012320778,"mag":41.96920711539528},"vspeed":"2435.2547531250","ilsDeviation":{"loc":"0.0673082119","gs":"-2.5000000000"},"onTrack":false,"status":0,"lng":-73.87767782955753,"lat":40.488100685644305,"weather":{"wind":{"heading":"342.0472717285","speed":7},"temp":"10.5468750000","turbulance":"N/A"}},"collectorId":"fb0d0289-a40e-4688-b2fb-5f894ba9e7c9","runId":"0"}
{"data":{"ready":true,"paused":false,"onGround":false,"crashed":false,"sts":"2017-09-21T16:50:44Z","ts":"2017-11-11T14:33:50.5086064+11:00","pitch":"14.4101426638","roll":"-0.0944846180","yaw":"-0.4145900879","airspeed":"129.7500000000","altitude":"2373.5494079243","heading":{"true":28.24179012320778,"mag":41.96920711539528},"vspeed":"2435.2547531250","ilsDeviation":{"loc":"0.0673082119","gs":"-2.5000000000"},"onTrack":false,"status":0,"lng":-73.87767782955753,"lat":40.488100685644305,"weather":{"wind":{"heading":"342.0472717285","speed":7},"temp":"10.5468750000","turbulance":"N/A"}},"collectorId":"fb0d0289-a40e-4688-b2fb-5f894ba9e7c9","runId":"0"}
{"data":{"ready":true,"paused":false,"onGround":false,"crashed":false,"sts":"2017-09-21T16:50:45Z","ts":"2017-11-11T14:33:50.7166064+11:00","pitch":"14.4555307135","roll":"-0.0937075080","yaw":"-0.4256757410","airspeed":"128.6328125000","altitude":"2381.3466052122","heading":{"true":28.183619616368492,"mag":41.91103660855599},"vspeed":"2403.7279312500","ilsDeviation":{"loc":"0.0673082119","gs":"-2.5000000000"},"onTrack":false,"status":0,"lng":-73.87759651238908,"lat":40.48820678494086,"weather":{"wind":{"heading":"341.9590759277","speed":7},"temp":"10.5351562500","turbulance":"N/A"}},"collectorId":"fb0d0289-a40e-4688-b2fb-5f894ba9e7c9","runId":"0"}
{"data":{"ready":true,"paused":false,"onGround":false,"crashed":false,"sts":"2017-09-21T16:50:45Z","ts":"2017-11-11T14:33:50.7166064+11:00","pitch":"14.4555307135","roll":"-0.0937075080","yaw":"-0.4256757410","airspeed":"128.6328125000","altitude":"2381.3466052122","heading":{"true":28.183619616368492,"mag":41.91103660855599},"vspeed":"2403.7279312500","ilsDeviation":{"loc":"0.0673082119","gs":"-2.5000000000"},"onTrack":false,"status":0,"lng":-73.87759651238908,"lat":40.48820678494086,"weather":{"wind":{"heading":"341.9590759277","speed":7},"temp":"10.5351562500","turbulance":"N/A"}},"collectorId":"fb0d0289-a40e-4688-b2fb-5f894ba9e7c9","runId":"0"}
{"data":{"ready":true,"paused":false,"onGround":false,"crashed":false,"sts":"2017-09-21T16:50:45Z","ts":"2017-11-11T14:33:50.9376064+11:00","pitch":"14.4928058392","roll":"-0.0916949517","yaw":"-0.4393646607","airspeed":"127.4218750000","altitude":"2389.5851346696","heading":{"true":28.12017681535691,"mag":41.84759380754441},"vspeed":"2366.0495343750","ilsDeviation":{"loc":"0.0677829324","gs":"-2.5000000000"},"onTrack":false,"status":0,"lng":-73.87750951080115,"lat":40.48832022151181,"weather":{"wind":{"heading":"341.8267517090","speed":7},"temp":"10.5156250000","turbulance":"N/A"}},"collectorId":"fb0d0289-a40e-4688-b2fb-5f894ba9e7c9","runId":"0"}
{"data":{"ready":true,"paused":false,"onGround":false,"crashed":false,"sts":"2017-09-21T16:50:45Z","ts":"2017-11-11T14:33:51.0506064+11:00","pitch":"14.5068389144","roll":"-0.0899881764","yaw":"-0.4462534717","airspeed":"126.8515625000","altitude":"2393.6252744701","heading":{"true":28.08827239040995,"mag":41.815689382597455},"vspeed":"2346.8258625000","ilsDeviation":{"loc":"0.0677829324","gs":"-2.5000000000"},"onTrack":false,"status":0,"lng":-73.87746638083941,"lat":40.488376424412266,"weather":{"wind":{"heading":"341.7826538086","speed":7},"temp":"10.5078125000","turbulance":"N/A"}},"collectorId":"fb0d0289-a40e-4688-b2fb-5f894ba9e7c9","runId":"0"}
{"data":{"ready":true,"paused":false,"onGround":false,"crashed":false,"sts":"2017-09-21T16:50:45Z","ts":"2017-11-11T14:33:51.0506064+11:00","pitch":"14.5068389144","roll":"-0.0899881764","yaw":"-0.4462534717","airspeed":"126.8515625000","altitude":"2393.6252744701","heading":{"true":28.08827239040995,"mag":41.815689382597455},"vspeed":"2346.8258625000","ilsDeviation":{"loc":"0.0677829324","gs":"-2.5000000000"},"onTrack":false,"status":0,"lng":-73.87746638083941,"lat":40.488376424412266,"weather":{"wind":{"heading":"341.7826538086","speed":7},"temp":"10.5078125000","turbulance":"N/A"}},"collectorId":"fb0d0289-a40e-4688-b2fb-5f894ba9e7c9","runId":"0"}
{"data":{"ready":true,"paused":false,"onGround":false,"crashed":false,"sts":"2017-09-21T16:50:45Z","ts":"2017-11-11T14:33:51.0506064+11:00","pitch":"14.5068389144","roll":"-0.0899881764","yaw":"-0.4462534717","airspeed":"126.8515625000","altitude":"2393.6252744701","heading":{"true":28.08827239040995,"mag":41.815689382597455},"vspeed":"2346.8258625000","ilsDeviation":{"loc":"0.0677829324","gs":"-2.5000000000"},"onTrack":false,"status":0,"lng":-73.87746638083941,"lat":40.488376424412266,"weather":{"wind":{"heading":"341.7826538086","speed":7},"temp":"10.5078125000","turbulance":"N/A"}},"collectorId":"fb0d0289-a40e-4688-b2fb-5f894ba9e7c9","runId":"0"}
{"data":{"ready":true,"paused":false,"onGround":false,"crashed":false,"sts":"2017-09-21T16:50:45Z","ts":"2017-11-11T14:33:51.2856064+11:00","pitch":"14.5258103387","roll":"-0.0869029552","yaw":"-0.4579663959","airspeed":"125.6718750000","altitude":"2401.6003448322","heading":{"true":28.023624234938087,"mag":41.75104122712558},"vspeed":"2304.5337843750","ilsDeviation":{"loc":"0.0682915571","gs":"-2.4772967811"},"onTrack":false,"status":0,"lng":-73.8773802186789,"lat":40.48848863776662,"weather":{"wind":{"heading":"341.6944580078","speed":7},"temp":"10.4960937500","turbulance":"N/A"}},"collectorId":"fb0d0289-a40e-4688-b2fb-5f894ba9e7c9","runId":"0"}
{"data":{"ready":true,"paused":false,"onGround":false,"crashed":false,"sts":"2017-09-21T16:50:45Z","ts":"2017-11-11T14:33:51.3976064+11:00","pitch":"14.5306702306","roll":"-0.0869990986","yaw":"-0.4637094714","airspeed":"125.0703125000","altitude":"2405.5419350454","heading":{"true":27.990805148804014,"mag":41.718222140991514},"vspeed":"2283.0032718750","ilsDeviation":{"loc":"0.0682915571","gs":"-2.4772967811"},"onTrack":false,"status":0,"lng":-73.87733707584349,"lat":40.488544791313565,"weather":{"wind":{"heading":"341.6062316895","speed":7},"temp":"10.4843750000","turbulance":"N/A"}},"collectorId":"fb0d0289-a40e-4688-b2fb-5f894ba9e7c9","runId":"0"}
{"data":{"ready":true,"paused":false,"onGround":false,"crashed":false,"sts":"2017-09-21T16:50:45Z","ts":"2017-11-11T14:33:51.5086064+11:00","pitch":"14.5323112059","roll":"-0.0856891347","yaw":"-0.4588383138","airspeed":"124.5703125000","altitude":"2408.8315710740","heading":{"true":27.962959281410086,"mag":41.690376273597586},"vspeed":"2263.7796000000","ilsDeviation":{"loc":"0.0687323687","gs":"-2.4273208811"},"onTrack":false,"status":0,"lng":-73.87730075676393,"lat":40.48859204524402,"weather":{"wind":{"heading":"341.5621032715","speed":7},"temp":"10.4804687500","turbulance":"N/A"}},"collectorId":"fb0d0289-a40e-4688-b2fb-5f894ba9e7c9","runId":"0"}
{"data":{"ready":true,"paused":false,"onGround":false,"crashed":false,"sts":"2017-09-21T16:50:45Z","ts":"2017-11-11T14:33:51.6206064+11:00","pitch":"14.5313395460","roll":"-0.0817877427","yaw":"-0.4378991815","airspeed":"123.9609375000","altitude":"2412.6701732374","heading":{"true":27.930030556636652,"mag":41.65744754882415},"vspeed":"2239.9422468750","ilsDeviation":{"loc":"0.0687323687","gs":"-2.4273208811"},"onTrack":false,"status":0,"lng":-73.87725798924407,"lat":40.488647667805736,"weather":{"wind":{"heading":"341.5180358887","speed":7},"temp":"10.4687500000","turbulance":"N/A"}},"collectorId":"fb0d0289-a40e-4688-b2fb-5f894ba9e7c9","runId":"0"}
{"data":{"ready":true,"paused":false,"onGround":false,"crashed":false,"sts":"2017-09-21T16:50:46Z","ts":"2017-11-11T14:33:51.7316064+11:00","pitch":"14.5271986757","roll":"-0.0797251448","yaw":"-0.4149250826","airspeed":"123.3359375000","altitude":"2416.4688505063","heading":{"true":27.89716243487259,"mag":41.62457942706009},"vspeed":"2216.1048937500","ilsDeviation":{"loc":"0.0687323687","gs":"-2.4273208811"},"onTrack":false,"status":0,"lng":-73.87721522156474,"lat":40.48870326695061,"weather":{"wind":{"heading":"341.4739379883","speed":7},"temp":"10.4648437500","turbulance":"N/A"}},"collectorId":"fb0d0289-a40e-4688-b2fb-5f894ba9e7c9","runId":"0"}
{"data":{"ready":true,"paused":false,"onGround":false,"crashed":false,"sts":"2017-09-21T16:50:46Z","ts":"2017-11-11T14:33:51.8416064+11:00","pitch":"14.5200130699","roll":"-0.0787620348","yaw":"-0.3906504682","airspeed":"122.7343750000","altitude":"2420.1587016407","heading":{"true":27.865139570019345,"mag":41.592556562206845},"vspeed":"2191.4985937500","ilsDeviation":{"loc":"0.0691392666","gs":"-2.3779341754"},"onTrack":false,"status":0,"lng":-73.87717321900412,"lat":40.488757848307955,"weather":{"wind":{"heading":"341.4298400879","speed":7},"temp":"10.4609375000","turbulance":"N/A"}},"collectorId":"fb0d0289-a40e-4688-b2fb-5f894ba9e7c9","runId":"0"}
{"data":{"ready":true,"paused":false,"onGround":false,"crashed":false,"sts":"2017-09-21T16:50:46Z","ts":"2017-11-11T14:33:51.9526064+11:00","pitch":"14.5103565713","roll":"-0.0778667364","yaw":"-0.3667438452","airspeed":"122.1796875000","altitude":"2423.6032546404","heading":{"true":27.83531450724876,"mag":41.56273149943626},"vspeed":"2167.6612406250","ilsDeviation":{"loc":"0.0691392666","gs":"-2.3779341754"},"onTrack":false,"status":0,"lng":-73.8771335654386,"lat":40.48880935558762,"weather":{"wind":{"heading":"341.3856811523","speed":7},"temp":"10.4531250000","turbulance":"N/A"}},"collectorId":"fb0d0289-a40e-4688-b2fb-5f894ba9e7c9","runId":"0"}
{"data":{"ready":true,"paused":false,"onGround":false,"crashed":false,"sts":"2017-09-21T16:50:46Z","ts":"2017-11-11T14:33:52.0626064+11:00","pitch":"14.4970902121","roll":"-0.0773865225","yaw":"-0.3433246570","airspeed":"121.5859375000","altitude":"2427.1869019304","heading":{"true":27.804469335731188,"mag":41.531886327918684},"vspeed":"2141.5170468750","ilsDeviation":{"loc":"0.0691392666","gs":"-2.3779341754"},"onTrack":false,"status":0,"lng":-73.87709181878633,"lat":40.48886355898074,"weather":{"wind":{"heading":"341.3415832520","speed":7},"temp":"10.4453125000","turbulance":"N/A"}},"collectorId":"fb0d0289-a40e-4688-b2fb-5f894ba9e7c9","runId":"0"}
{"data":{"ready":true,"paused":false,"onGround":false,"crashed":false,"sts":"2017-09-21T16:50:46Z","ts":"2017-11-11T14:33:52.1726064+11:00","pitch":"14.4803336057","roll":"-0.0761115961","yaw":"-0.3199358767","airspeed":"121.0000000000","altitude":"2430.7104442776","heading":{"true":27.774446873116798,"mag":41.5018638653043},"vspeed":"2115.3728531250","ilsDeviation":{"loc":"0.0694783513","gs":"-2.3315190868"},"onTrack":false,"status":0,"lng":-73.87705024294736,"lat":40.48891751703288,"weather":{"wind":{"heading":"341.2975158691","speed":7},"temp":"10.4414062500","turbulance":"N/A"}},"collectorId":"fb0d0289-a40e-4688-b2fb-5f894ba9e7c9","runId":"0"}
{"data":{"ready":true,"paused":false,"onGround":false,"crashed":false,"sts":"2017-09-21T16:50:46Z","ts":"2017-11-11T14:33:52.2826064+11:00","pitch":"14.4608498640","roll":"-0.0748774070","yaw":"-0.3000344632","airspeed":"120.4453125000","altitude":"2433.9956668913","heading":{"true":27.746825396118567,"mag":41.47424238830607},"vspeed":"2089.2286593750","ilsDeviation":{"loc":"0.0694783513","gs":"-2.3315190868"},"onTrack":false,"status":0,"lng":-73.87701096736635,"lat":40.48896846770099,"weather":{"wind":{"heading":"341.2534179688","speed":7},"temp":"10.4335937500","turbulance":"N/A"}},"collectorId":"fb0d0289-a40e-4688-b2fb-5f894ba9e7c9","runId":"0"}
